{
  "stops": {
    "Heaton Park": {
      "name": "Heaton Park",
      "code": "HPK",
      "zone": "3",
      "lat": 53.5305052393,
      "lng": -2.2672470445,
      "lines": [
        "yellow",
        "green"
      ]
    },
    "Bowker Vale": {
      "name": "Bowker Vale",
      "code": "BKV",
      "zone": "2/3",
      "lat": 53.5248928945,
      "lng": -2.2498954101,
      "lines": [
        "yellow",
        "green"
      ]
    },
    "Crumpsall": {
      "name": "Crumpsall",
      "code": "CRP",
      "zone": "2",
      "lat": 53.5172931833,
      "lng": -2.2410447161,
      "lines": [
        "yellow",
        "green"
      ]
    },
    "Bury": {
      "name": "Bury",
      "code": "BRY",
      "zone": "4",
      "lat": 53.590958632,
      "lng": -2.2970957346,
      "lines": [
        "yellow",
        "green"
      ]
    },
    "Radcliffe": {
      "name": "Radcliffe",
      "code": "RAD",
      "zone": "4",
      "lat": 53.5623899316,
      "lng": -2.3210307459,
      "lines": [
        "yellow",
        "green"
      ]
    },
    "Whitefield": {
      "name": "Whitefield",
      "code": "WFD",
      "zone": "3/4",
      "lat": 53.5512115751,
      "lng": -2.2952051111,
      "lines": [
        "yellow",
        "green"
      ]
    },
    "Besses o' th' Barn": {
      "name": "Besses o' th' Barn",
      "code": "BOB",
      "zone": "3",
      "lat": 53.5420651307,
      "lng": -2.2861234691,
      "lines": [
        "yellow",
        "green"
      ]
    },
    "Prestwich": {
      "name": "Prestwich",
      "code": "PRS",
      "zone": "3",
      "lat": 53.5333182757,
      "lng": -2.2819023349,
      "lines": [
        "yellow",
        "green"
      ]
    },
    "Victoria": {
      "name": "Victoria",
      "code": "VIC",
      "zone": "1",
      "lat": 53.4877421261,
      "lng": -2.2417174125,
      "lines": [
        "yellow",
        "green",
        "blue"
      ]
    },
    "Market Street": {
      "name": "Market Street",
      "code": "MKT",
      "zone": "1",
      "lat": 53.4819375024,
      "lng": -2.238836318,
      "lines": [
        "yellow",
        "green",
        "blue"
      ]
    },
    "Piccadilly Gardens": {
      "name": "Piccadilly Gardens",
      "code": "PCG",
      "zone": "1",
      "lat": 53.4802724384,
      "lng": -2.236987811,
      "lines": [
        "yellow",
        "purple",
        "light-blue"
      ]
    },
    "Piccadilly": {
      "name": "Piccadilly",
      "code": "PIC",
      "zone": "1",
      "lat": 53.4770298302,
      "lng": -2.2304092919,
      "lines": [
        "yellow",
        "purple",
        "light-blue"
      ]
    },
    "Deansgate-Castlefield": {
      "name": "Deansgate-Castlefield",
      "code": "DCF",
      "zone": "1",
      "lat": 53.4747237826,
      "lng": -2.2503454594,
      "lines": [
        "red",
        "light-blue",
        "purple",
        "green",
        "blue",
        "pink"
      ]
    },
    "Pomona": {
      "name": "Pomona",
      "code": "POM",
      "zone": "2",
      "lat": 53.4651935124,
      "lng": -2.2780294948,
      "lines": [
        "red",
        "light-blue"
      ]
    },
    "Trafford Bar": {
      "name": "Trafford Bar",
      "code": "TFB",
      "zone": "2",
      "lat": 53.4617587999,
      "lng": -2.2772539486,
      "lines": [
        "purple",
        "green",
        "blue",
        "pink"
      ]
    },
    "Shudehill": {
      "name": "Shudehill",
      "code": "SHL",
      "zone": "1",
      "lat": 53.4852776589,
      "lng": -2.2391066292,
      "lines": [
        "yellow",
        "green",
        "blue"
      ]
    },
    "Firswood": {
      "name": "Firswood",
      "code": "FIR",
      "zone": "2",
      "lat": 53.4512107555,
      "lng": -2.2776764321,
      "lines": [
        "blue",
        "pink"
      ]
    },
    "Chorlton": {
      "name": "Chorlton",
      "code": "CHO",
      "zone": "2",
      "lat": 53.4428250722,
      "lng": -2.2735081151,
      "lines": [
        "blue",
        "pink"
      ]
    },
    "St Werburgh's Road": {
      "name": "St Werburgh's Road",
      "code": "SWR",
      "zone": "2/3",
      "lat": 53.4388412989,
      "lng": -2.2657145447,
      "lines": [
        "blue",
        "pink"
      ]
    },
    "Sale Water Park": {
      "name": "Sale Water Park",
      "code": "SWP",
      "zone": "3",
      "lat": 53.4282433092,
      "lng": -2.2908313313,
      "lines": [
        "blue"
      ]
    },
    "Northern Moor": {
      "name": "Northern Moor",
      "code": "NMR",
      "zone": "3",
      "lat": 53.4145544826,
      "lng": -2.2881513123,
      "lines": [
        "blue"
      ]
    },
    "Wythenshawe Park": {
      "name": "Wythenshawe Park",
      "code": "WPK",
      "zone": "3",
      "lat": 53.4077357466,
      "lng": -2.2956997904,
      "lines": [
        "blue"
      ]
    },
    "Moor Road": {
      "name": "Moor Road",
      "code": "MRD",
      "zone": "3",
      "lat": 53.4033107222,
      "lng": -2.2951582047,
      "lines": [
        "blue"
      ]
    },
    "Baguley": {
      "name": "Baguley",
      "code": "BAG",
      "zone": "3",
      "lat": 53.3968492434,
      "lng": -2.2926735303,
      "lines": [
        "blue"
      ]
    },
    "Roundthorn": {
      "name": "Roundthorn",
      "code": "RTH",
      "zone": "3/4",
      "lat": 53.3926441504,
      "lng": -2.2891721972,
      "lines": [
        "blue"
      ]
    },
    "Martinscroft": {
      "name": "Martinscroft",
      "code": "MAR",
      "zone": "4",
      "lat": 53.3918700253,
      "lng": -2.2797792265,
      "lines": [
        "blue"
      ]
    },
    "Benchill": {
      "name": "Benchill",
      "code": "BCH",
      "zone": "4",
      "lat": 53.3872398523,
      "lng": -2.2562153902,
      "lines": [
        "blue"
      ]
    },
    "Crossacres": {
      "name": "Crossacres",
      "code": "CRO",
      "zone": "4",
      "lat": 53.3833174666,
      "lng": -2.2562644211,
      "lines": [
        "blue"
      ]
    },
    "Robinswood Road": {
      "name": "Robinswood Road",
      "code": "RBN",
      "zone": "4",
      "lat": 53.3763956977,
      "lng": -2.2586906852,
      "lines": [
        "blue"
      ]
    },
    "Peel Hall": {
      "name": "Peel Hall",
      "code": "PLH",
      "zone": "4",
      "lat": 53.3737132444,
      "lng": -2.2503949954,
      "lines": [
        "blue"
      ]
    },
    "Shadowmoss": {
      "name": "Shadowmoss",
      "code": "SHD",
      "zone": "4",
      "lat": 53.3679619667,
      "lng": -2.2524452592,
      "lines": [
        "blue"
      ]
    },
    "Manchester Airport": {
      "name": "Manchester Airport",
      "code": "AIR",
      "zone": "4",
      "lat": 53.3653594952,
      "lng": -2.2722561498,
      "lines": [
        "blue"
      ]
    },
    "New Islington": {
      "name": "New Islington",
      "code": "NIS",
      "zone": "1",
      "lat": 53.4810493679,
      "lng": -2.2198151131,
      "lines": [
        "light-blue"
      ]
    },
    "Holt Town": {
      "name": "Holt Town",
      "code": "HOT",
      "zone": "2",
      "lat": 53.4832805049,
      "lng": -2.2120629808,
      "lines": [
        "light-blue"
      ]
    },
    "Etihad Campus": {
      "name": "Etihad Campus",
      "code": "SPC",
      "zone": "2",
      "lat": 53.48537388,
      "lng": -2.2013834129,
      "lines": [
        "light-blue"
      ]
    },
    "Velopark": {
      "name": "Velopark",
      "code": "VEL",
      "zone": "2",
      "lat": 53.4822885127,
      "lng": -2.1930154769,
      "lines": [
        "light-blue"
      ]
    },
    "Clayton Hall": {
      "name": "Clayton Hall",
      "code": "CLA",
      "zone": "2",
      "lat": 53.4827941592,
      "lng": -2.1823514852,
      "lines": [
        "light-blue"
      ]
    },
    "Edge Lane": {
      "name": "Edge Lane",
      "code": "EDL",
      "zone": "2/3",
      "lat": 53.4808853353,
      "lng": -2.1652927417,
      "lines": [
        "light-blue"
      ]
    },
    "Cemetery Road": {
      "name": "Cemetery Road",
      "code": "CER",
      "zone": "3",
      "lat": 53.4798803727,
      "lng": -2.1550048902,
      "lines": [
        "light-blue"
      ]
    },
    "Droylsden": {
      "name": "Droylsden",
      "code": "DYL",
      "zone": "3",
      "lat": 53.4794704547,
      "lng": -2.1446657345,
      "lines": [
        "light-blue"
      ]
    },
    "Audenshaw": {
      "name": "Audenshaw",
      "code": "AUD",
      "zone": "3",
      "lat": 53.4782093022,
      "lng": -2.1309653768,
      "lines": [
        "light-blue"
      ]
    },
    "Ashton Moss": {
      "name": "Ashton Moss",
      "code": "ASM",
      "zone": "3",
      "lat": 53.4836767552,
      "lng": -2.1219229142,
      "lines": [
        "light-blue"
      ]
    },
    "Ashton West": {
      "name": "Ashton West",
      "code": "ASW",
      "zone": "3",
      "lat": 53.490250128,
      "lng": -2.109721205,
      "lines": [
        "light-blue"
      ]
    },
    "Ashton-under-Lyne": {
      "name": "Ashton-under-Lyne",
      "code": "ASH",
      "zone": "3",
      "lat": 53.4903504854,
      "lng": -2.0980345788,
      "lines": [
        "light-blue"
      ]
    },
    "Queens Road": {
      "name": "Queens Road",
      "code": "QNS",
      "zone": "2",
      "lat": 53.5016807825,
      "lng": -2.2266494916,
      "lines": [
        "yellow",
        "green"
      ]
    },
    "Monsall": {
      "name": "Monsall",
      "code": "MON",
      "zone": "2",
      "lat": 53.501096583,
      "lng": -2.2106544254,
      "lines": [
        "pink"
      ]
    },
    "Central Park": {
      "name": "Central Park",
      "code": "CEP",
      "zone": "2",
      "lat": 53.5015926359,
      "lng": -2.1991400887,
      "lines": [
        "pink"
      ]
    },
    "Newton Heath and Moston": {
      "name": "Newton Heath and Moston",
      "code": "NHM",
      "zone": "2/3",
      "lat": 53.5042267329,
      "lng": -2.1837232589,
      "lines": [
        "pink"
      ]
    },
    "Failsworth": {
      "name": "Failsworth",
      "code": "FAL",
      "zone": "3",
      "lat": 53.5106281642,
      "lng": -2.1629235996,
      "lines": [
        "pink"
      ]
    },
    "Hollinwood": {
      "name": "Hollinwood",
      "code": "HOL",
      "zone": "3",
      "lat": 53.5199984264,
      "lng": -2.1473264614,
      "lines": [
        "pink"
      ]
    },
    "South Chadderton": {
      "name": "South Chadderton",
      "code": "SOC",
      "zone": "3",
      "lat": 53.5267187383,
      "lng": -2.1451820867,
      "lines": [
        "pink"
      ]
    },
    "Cornbrook": {
      "name": "Cornbrook",
      "code": "CNK",
      "zone": "1/2",
      "lat": 53.4700194787,
      "lng": -2.2675495027,
      "lines": [
        "red",
        "light-blue",
        "purple",
        "green",
        "blue",
        "pink"
      ]
    },
    "Abraham Moss": {
      "name": "Abraham Moss",
      "code": "ABM",
      "zone": "2",
      "lat": 53.5106676302,
      "lng": -2.2357186392,
      "lines": [
        "green",
        "yellow"
      ]
    },
    "Dane Road": {
      "name": "Dane Road",
      "code": "DAN",
      "zone": "3",
      "lat": 53.4300039735,
      "lng": -2.3116614149,
      "lines": [
        "purple",
        "green"
      ]
    },
    "Sale": {
      "name": "Sale",
      "code": "SAL",
      "zone": "3",
      "lat": 53.4241853331,
      "lng": -2.3191394411,
      "lines": [
        "purple",
        "green"
      ]
    },
    "Brooklands": {
      "name": "Brooklands",
      "code": "BRK",
      "zone": "3/4",
      "lat": 53.4170730157,
      "lng": -2.3260595267,
      "lines": [
        "purple",
        "green"
      ]
    },
    "Timperley": {
      "name": "Timperley",
      "code": "TMP",
      "zone": "4",
      "lat": 53.4042544039,
      "lng": -2.3384036505,
      "lines": [
        "purple",
        "green"
      ]
    },
    "Navigation Road": {
      "name": "Navigation Road",
      "code": "NAV",
      "zone": "4",
      "lat": 53.3957955321,
      "lng": -2.3433163641,
      "lines": [
        "purple",
        "green"
      ]
    },
    "Altrincham": {
      "name": "Altrincham",
      "code": "ALT",
      "zone": "4",
      "lat": 53.3872091274,
      "lng": -2.3475158907,
      "lines": [
        "purple",
        "green"
      ]
    },
    "Eccles": {
      "name": "Eccles",
      "code": "ECC",
      "zone": "2",
      "lat": 53.4829836037,
      "lng": -2.3351657527,
      "lines": [
        "light-blue"
      ]
    },
    "Ladywell": {
      "name": "Ladywell",
      "code": "LDW",
      "zone": "2",
      "lat": 53.4839997121,
      "lng": -2.3266550151,
      "lines": [
        "light-blue"
      ]
    },
    "Salford Quays": {
      "name": "Salford Quays",
      "code": "SFQ",
      "zone": "2",
      "lat": 53.4704131132,
      "lng": -2.2839674299,
      "lines": [
        "light-blue"
      ]
    },
    "Exchange Quay": {
      "name": "Exchange Quay",
      "code": "EXQ",
      "zone": "2",
      "lat": 53.4676986039,
      "lng": -2.2823433015,
      "lines": [
        "light-blue"
      ]
    },
    "Harbour City": {
      "name": "Harbour City",
      "code": "HBC",
      "zone": "2",
      "lat": 53.4741850056,
      "lng": -2.2906199446,
      "lines": [
        "light-blue"
      ]
    },
    "Anchorage": {
      "name": "Anchorage",
      "code": "ANC",
      "zone": "2",
      "lat": 53.4743378737,
      "lng": -2.2860274637,
      "lines": [
        "light-blue"
      ]
    },
    "Broadway": {
      "name": "Broadway",
      "code": "BDW",
      "zone": "2",
      "lat": 53.4747951082,
      "lng": -2.2949315704,
      "lines": [
        "light-blue"
      ]
    },
    "Langworthy": {
      "name": "Langworthy",
      "code": "LGW",
      "zone": "2",
      "lat": 53.4806439282,
      "lng": -2.2961628569,
      "lines": [
        "light-blue"
      ]
    },
    "Weaste": {
      "name": "Weaste",
      "code": "WST",
      "zone": "2",
      "lat": 53.4824216266,
      "lng": -2.3075148627,
      "lines": [
        "light-blue"
      ]
    },
    "Old Trafford": {
      "name": "Old Trafford",
      "code": "OLD",
      "zone": "2",
      "lat": 53.4560743794,
      "lng": -2.2850068072,
      "lines": [
        "purple",
        "green"
      ]
    },
    "Stretford": {
      "name": "Stretford",
      "code": "STR",
      "zone": "2/3",
      "lat": 53.4460264212,
      "lng": -2.3038078823,
      "lines": [
        "purple",
        "green"
      ]
    },
    "MediaCityUK": {
      "name": "MediaCityUK",
      "code": "MEC",
      "zone": "2",
      "lat": 53.4721717265,
      "lng": -2.2971112068,
      "lines": [
        "light-blue"
      ]
    },
    "Freehold": {
      "name": "Freehold",
      "code": "FRE",
      "zone": "3",
      "lat": 53.5376871081,
      "lng": -2.1380277899,
      "lines": [
        "pink"
      ]
    },
    "Oldham King Street": {
      "name": "Oldham King Street",
      "code": "OHK",
      "zone": "3",
      "lat": 53.5395711032,
      "lng": -2.1174322118,
      "lines": [
        "pink"
      ]
    },
    "Oldham Central": {
      "name": "Oldham Central",
      "code": "OHC",
      "zone": "3",
      "lat": 53.5403139516,
      "lng": -2.1121345029,
      "lines": [
        "pink"
      ]
    },
    "Oldham Mumps": {
      "name": "Oldham Mumps",
      "code": "OHM",
      "zone": "3",
      "lat": 53.5424034135,
      "lng": -2.103459906,
      "lines": [
        "pink"
      ]
    },
    "Derker": {
      "name": "Derker",
      "code": "DER",
      "zone": "3/4",
      "lat": 53.5498235973,
      "lng": -2.1016186463,
      "lines": [
        "pink"
      ]
    },
    "Shaw and Crompton": {
      "name": "Shaw and Crompton",
      "code": "SHC",
      "zone": "4",
      "lat": 53.5761674215,
      "lng": -2.0895481845,
      "lines": [
        "pink"
      ]
    },
    "Newhey": {
      "name": "Newhey",
      "code": "NEH",
      "zone": "4",
      "lat": 53.6008299984,
      "lng": -2.0946585416,
      "lines": [
        "pink"
      ]
    },
    "Milnrow": {
      "name": "Milnrow",
      "code": "MIL",
      "zone": "4",
      "lat": 53.608122029,
      "lng": -2.112073856,
      "lines": [
        "pink"
      ]
    },
    "Kingsway Business Park": {
      "name": "Kingsway Business Park",
      "code": "KIN",
      "zone": "4",
      "lat": 53.6110951947,
      "lng": -2.1237052529,
      "lines": [
        "pink"
      ]
    },
    "Newbold": {
      "name": "Newbold",
      "code": "NEB",
      "zone": "4",
      "lat": 53.613394931,
      "lng": -2.1354992055,
      "lines": [
        "pink"
      ]
    },
    "Rochdale Railway Station": {
      "name": "Rochdale Railway Station",
      "code": "ROC",
      "zone": "4",
      "lat": 53.6110247492,
      "lng": -2.1544526694,
      "lines": [
        "pink"
      ]
    },
    "Rochdale Town Centre": {
      "name": "Rochdale Town Centre",
      "code": "RTC",
      "zone": "4",
      "lat": 53.6173341878,
      "lng": -2.1553798789,
      "lines": [
        "pink"
      ]
    },
    "Barlow Moor Road": {
      "name": "Barlow Moor Road",
      "code": "BMR",
      "zone": "2/3",
      "lat": 53.4328481051,
      "lng": -2.269276432,
      "lines": [
        "blue"
      ]
    },
    "Withington": {
      "name": "Withington",
      "code": "WTH",
      "zone": "3",
      "lat": 53.4327822155,
      "lng": -2.2493378112,
      "lines": [
        "pink"
      ]
    },
    "Burton Road": {
      "name": "Burton Road",
      "code": "BRT",
      "zone": "3",
      "lat": 53.4291721195,
      "lng": -2.2406360726,
      "lines": [
        "pink"
      ]
    },
    "West Didsbury": {
      "name": "West Didsbury",
      "code": "WDD",
      "zone": "3",
      "lat": 53.424467407,
      "lng": -2.2360528894,
      "lines": [
        "pink"
      ]
    },
    "Didsbury Village": {
      "name": "Didsbury Village",
      "code": "DDV",
      "zone": "3",
      "lat": 53.4167534695,
      "lng": -2.2285999437,
      "lines": [
        "pink"
      ]
    },
    "East Didsbury": {
      "name": "East Didsbury",
      "code": "EDD",
      "zone": "3",
      "lat": 53.4120746108,
      "lng": -2.2172659574,
      "lines": [
        "pink"
      ]
    },
    "Wythenshawe Town Centre": {
      "name": "Wythenshawe Town Centre",
      "code": "WYC",
      "zone": "4",
      "lat": 53.3800462057,
      "lng": -2.2637514069,
      "lines": [
        "blue"
      ]
    },
    "Westwood": {
      "name": "Westwood",
      "code": "WWD",
      "zone": "3",
      "lat": 53.5423538912,
      "lng": -2.1258579193,
      "lines": [
        "pink"
      ]
    },
    "Exchange Square": {
      "name": "Exchange Square",
      "code": "EXS",
      "zone": "1",
      "lat": 53.4844652692,
      "lng": -2.2426735994,
      "lines": [
        "light-blue",
        "purple",
        "green",
        "blue",
        "pink"
      ]
    },
    "The Trafford Centre": {
      "name": "The Trafford Centre",
      "code": "TRC",
      "zone": "3",
      "lat": 53.4679165082,
      "lng": -2.3477940921,
      "lines": [
        "red"
      ]
    },
    "Wharfside": {
      "name": "Wharfside",
      "code": "WSD",
      "zone": "2",
      "lat": 53.4662371372,
      "lng": -2.2875084333,
      "lines": [
        "red"
      ]
    },
    "Imperial War Museum": {
      "name": "Imperial War Museum",
      "code": "IWM",
      "zone": "2",
      "lat": 53.4686012552,
      "lng": -2.2967749705,
      "lines": [
        "red"
      ]
    },
    "Village": {
      "name": "Village",
      "code": "VLG",
      "zone": "2",
      "lat": 53.4674095941,
      "lng": -2.309073014,
      "lines": [
        "red"
      ]
    },
    "Parkway": {
      "name": "Parkway",
      "code": "PAR",
      "zone": "2/3",
      "lat": 53.4682676521,
      "lng": -2.3243797567,
      "lines": [
        "red"
      ]
    },
    "Barton Dock Road": {
      "name": "Barton Dock Road",
      "code": "EVC",
      "zone": "3",
      "lat": 53.4657339268,
      "lng": -2.3419892513,
      "lines": [
        "red"
      ]
    },
    "St Peter's Square": {
      "name": "St Peter's Square",
      "code": "SPS",
      "zone": "1",
      "lat": 53.4782182293,
      "lng": -2.2431081393,
      "lines": [
        "light-blue",
        "purple",
        "green",
        "blue",
        "pink"
      ]
    }
  },
  "graph": {
    "Heaton Park": [
      "Bowker Vale",
      "Prestwich"
    ],
    "Bowker Vale": [
      "Heaton Park",
      "Crumpsall"
    ],
    "Crumpsall": [
      "Bowker Vale",
      "Abraham Moss"
    ],
    "Bury": [
      "Radcliffe"
    ],
    "Radcliffe": [
      "Bury",
      "Whitefield"
    ],
    "Whitefield": [
      "Besses o' th' Barn",
      "Radcliffe"
    ],
    "Besses o' th' Barn": [
      "Prestwich",
      "Whitefield"
    ],
    "Prestwich": [
      "Heaton Park",
      "Besses o' th' Barn"
    ],
    "Victoria": [
      "Shudehill",
      "Exchange Square",
      "Monsall",
      "Queens Road"
    ],
    "Market Street": [
      "Shudehill",
      "Piccadilly Gardens",
      "St Peter's Square"
    ],
    "Piccadilly Gardens": [
      "Market Street",
      "St Peter's Square",
      "Piccadilly",
      "Exchange Square"
    ],
    "Piccadilly": [
      "New Islington",
      "Piccadilly Gardens"
    ],
    "Deansgate-Castlefield": [
      "Cornbrook",
      "St Peter's Square"
    ],
    "Pomona": [
      "Wharfside",
      "Exchange Quay",
      "Cornbrook"
    ],
    "Trafford Bar": [
      "Old Trafford",
      "Cornbrook",
      "Firswood"
    ],
    "Shudehill": [
      "Market Street",
      "Victoria"
    ],
    "Firswood": [
      "Trafford Bar",
      "Chorlton"
    ],
    "Chorlton": [
      "Firswood",
      "St Werburgh's Road"
    ],
    "St Werburgh's Road": [
      "Barlow Moor Road",
      "Withington",
      "Chorlton"
    ],
    "Sale Water Park": [
      "Barlow Moor Road",
      "Northern Moor"
    ],
    "Northern Moor": [
      "Wythenshawe Park",
      "Sale Water Park"
    ],
    "Wythenshawe Park": [
      "Moor Road",
      "Northern Moor"
    ],
    "Moor Road": [
      "Wythenshawe Park",
      "Baguley"
    ],
    "Baguley": [
      "Roundthorn",
      "Moor Road"
    ],
    "Roundthorn": [
      "Baguley",
      "Martinscroft"
    ],
    "Martinscroft": [
      "Roundthorn",
      "Benchill"
    ],
    "Benchill": [
      "Crossacres",
      "Martinscroft"
    ],
    "Crossacres": [
      "Wythenshawe Town Centre",
      "Benchill"
    ],
    "Robinswood Road": [
      "Wythenshawe Town Centre",
      "Peel Hall"
    ],
    "Peel Hall": [
      "Robinswood Road",
      "Shadowmoss"
    ],
    "Shadowmoss": [
      "Manchester Airport",
      "Peel Hall"
    ],
    "Manchester Airport": [
      "Shadowmoss"
    ],
    "New Islington": [
      "Piccadilly",
      "Holt Town"
    ],
    "Holt Town": [
      "New Islington",
      "Etihad Campus"
    ],
    "Etihad Campus": [
      "Velopark",
      "Holt Town"
    ],
    "Velopark": [
      "Clayton Hall",
      "Etihad Campus"
    ],
    "Clayton Hall": [
      "Edge Lane",
      "Velopark"
    ],
    "Edge Lane": [
      "Clayton Hall",
      "Cemetery Road"
    ],
    "Cemetery Road": [
      "Droylsden",
      "Edge Lane"
    ],
    "Droylsden": [
      "Cemetery Road",
      "Audenshaw"
    ],
    "Audenshaw": [
      "Droylsden",
      "Ashton Moss"
    ],
    "Ashton Moss": [
      "Ashton West",
      "Audenshaw"
    ],
    "Ashton West": [
      "Ashton Moss",
      "Ashton-under-Lyne"
    ],
    "Ashton-under-Lyne": [
      "Ashton West"
    ],
    "Queens Road": [
      "Shudehill",
      "Abraham Moss"
    ],
    "Monsall": [
      "Central Park",
      "Victoria"
    ],
    "Central Park": [
      "Newton Heath and Moston",
      "Monsall"
    ],
    "Newton Heath and Moston": [
      "Central Park",
      "Failsworth"
    ],
    "Failsworth": [
      "Newton Heath and Moston",
      "Hollinwood"
    ],
    "Hollinwood": [
      "Failsworth",
      "South Chadderton"
    ],
    "South Chadderton": [
      "Freehold",
      "Hollinwood"
    ],
    "Cornbrook": [
      "Deansgate-Castlefield",
      "Pomona",
      "Trafford Bar"
    ],
    "Abraham Moss": [
      "Crumpsall",
      "Queens Road"
    ],
    "Dane Road": [
      "Sale",
      "Stretford"
    ],
    "Sale": [
      "Brooklands",
      "Dane Road"
    ],
    "Brooklands": [
      "Sale",
      "Timperley"
    ],
    "Timperley": [
      "Navigation Road",
      "Brooklands"
    ],
    "Navigation Road": [
      "Timperley",
      "Altrincham"
    ],
    "Altrincham": [
      "Navigation Road"
    ],
    "Eccles": [
      "Ladywell"
    ],
    "Ladywell": [
      "Weaste",
      "Eccles"
    ],
    "Salford Quays": [
      "Anchorage",
      "Exchange Quay"
    ],
    "Exchange Quay": [
      "Pomona",
      "Salford Quays"
    ],
    "Harbour City": [
      "Broadway",
      "MediaCityUK",
      "Anchorage"
    ],
    "Anchorage": [
      "Harbour City",
      "Salford Quays"
    ],
    "Broadway": [
      "MediaCityUK",
      "Harbour City",
      "Langworthy"
    ],
    "Langworthy": [
      "Weaste",
      "Broadway"
    ],
    "Weaste": [
      "Ladywell",
      "Langworthy"
    ],
    "Old Trafford": [
      "Stretford",
      "Trafford Bar"
    ],
    "Stretford": [
      "Old Trafford",
      "Dane Road"
    ],
    "MediaCityUK": [
      "Harbour City",
      "Broadway"
    ],
    "Freehold": [
      "Westwood",
      "South Chadderton"
    ],
    "Oldham King Street": [
      "Westwood",
      "Oldham Central"
    ],
    "Oldham Central": [
      "Oldham Mumps",
      "Oldham King Street"
    ],
    "Oldham Mumps": [
      "Oldham Central",
      "Derker"
    ],
    "Derker": [
      "Oldham Mumps",
      "Shaw and Crompton"
    ],
    "Shaw and Crompton": [
      "Derker",
      "Newhey"
    ],
    "Newhey": [
      "Milnrow",
      "Shaw and Crompton"
    ],
    "Milnrow": [
      "Kingsway Business Park",
      "Newhey"
    ],
    "Kingsway Business Park": [
      "Milnrow",
      "Newbold"
    ],
    "Newbold": [
      "Kingsway Business Park",
      "Rochdale Railway Station"
    ],
    "Rochdale Railway Station": [
      "Rochdale Town Centre",
      "Newbold"
    ],
    "Rochdale Town Centre": [
      "Rochdale Railway Station"
    ],
    "Barlow Moor Road": [
      "Sale Water Park",
      "St Werburgh's Road"
    ],
    "Withington": [
      "St Werburgh's Road",
      "Burton Road"
    ],
    "Burton Road": [
      "Withington",
      "West Didsbury"
    ],
    "West Didsbury": [
      "Didsbury Village",
      "Burton Road"
    ],
    "Didsbury Village": [
      "East Didsbury",
      "West Didsbury"
    ],
    "East Didsbury": [
      "Didsbury Village"
    ],
    "Wythenshawe Town Centre": [
      "Robinswood Road",
      "Crossacres"
    ],
    "Westwood": [
      "Oldham King Street",
      "Freehold"
    ],
    "Exchange Square": [
      "St Peter's Square",
      "Victoria"
    ],
    "The Trafford Centre": [
      "Barton Dock Road"
    ],
    "Wharfside": [
      "Imperial War Museum",
      "Pomona"
    ],
    "Imperial War Museum": [
      "Village",
      "Wharfside"
    ],
    "Village": [
      "Imperial War Museum",
      "Parkway"
    ],
    "Parkway": [
      "Barton Dock Road",
      "Village"
    ],
    "Barton Dock Road": [
      "Parkway",
      "The Trafford Centre"
    ],
    "St Peter's Square": [
      "Deansgate-Castlefield",
      "Exchange Square",
      "Piccadilly Gardens",
      "Market Street"
    ]
  },
  "edges": [
    {
      "from": "Abraham Moss",
      "to": "Crumpsall",
      "lines": [
        "Bury"
      ]
    },
    {
      "from": "Abraham Moss",
      "to": "Queens Road",
      "lines": [
        "Bury"
      ]
    },
    {
      "from": "Altrincham",
      "to": "Navigation Road",
      "lines": [
        "Altrincham"
      ]
    },
    {
      "from": "Anchorage",
      "to": "Harbour City",
      "lines": [
        "Eccles",
        "MediaCity Spur"
      ]
    },
    {
      "from": "Anchorage",
      "to": "Langworthy",
      "lines": [
        "MediaCity Spur"
      ]
    },
    {
      "from": "Anchorage",
      "to": "Salford Quays",
      "lines": [
        "Eccles"
      ]
    },
    {
      "from": "Ashton Moss",
      "to": "Ashton West",
      "lines": [
        "Ashton"
      ]
    },
    {
      "from": "Ashton Moss",
      "to": "Audenshaw",
      "lines": [
        "Ashton"
      ]
    },
    {
      "from": "Ashton West",
      "to": "Ashton-under-Lyne",
      "lines": [
        "Ashton"
      ]
    },
    {
      "from": "Audenshaw",
      "to": "Droylsden",
      "lines": [
        "Ashton"
      ]
    },
    {
      "from": "Baguley",
      "to": "Moor Road",
      "lines": [
        "Manchester Airport"
      ]
    },
    {
      "from": "Baguley",
      "to": "Roundthorn",
      "lines": [
        "Manchester Airport"
      ]
    },
    {
      "from": "Barlow Moor Road",
      "to": "Chorlton",
      "lines": [
        "Chorlton"
      ]
    },
    {
      "from": "Barlow Moor Road",
      "to": "Sale Water Park",
      "lines": [
        "Manchester Airport"
      ]
    },
    {
      "from": "Barlow Moor Road",
      "to": "St Werburgh's Road",
      "lines": [
        "Chorlton",
        "East Didsbury",
        "Manchester Airport"
      ]
    },
    {
      "from": "Barlow Moor Road",
      "to": "Withington",
      "lines": [
        "East Didsbury"
      ]
    },
    {
      "from": "Barton Dock Road",
      "to": "Parkway",
      "lines": [
        "Trafford"
      ]
    },
    {
      "from": "Barton Dock Road",
      "to": "The Trafford Centre",
      "lines": [
        "Trafford"
      ]
    },
    {
      "from": "Benchill",
      "to": "Crossacres",
      "lines": [
        "Manchester Airport"
      ]
    },
    {
      "from": "Benchill",
      "to": "Martinscroft",
      "lines": [
        "Manchester Airport"
      ]
    },
    {
      "from": "Besses o' th' Barn",
      "to": "Prestwich",
      "lines": [
        "Bury"
      ]
    },
    {
      "from": "Besses o' th' Barn",
      "to": "Whitefield",
      "lines": [
        "Bury"
      ]
    },
    {
      "from": "Bowker Vale",
      "to": "Crumpsall",
      "lines": [
        "Bury"
      ]
    },
    {
      "from": "Bowker Vale",
      "to": "Heaton Park",
      "lines": [
        "Bury"
      ]
    },
    {
      "from": "Broadway",
      "to": "Harbour City",
      "lines": [
        "Eccles",
        "Trafford"
      ]
    },
    {
      "from": "Broadway",
      "to": "Imperial War Museum",
      "lines": [
        "Trafford"
      ]
    },
    {
      "from": "Broadway",
      "to": "Langworthy",
      "lines": [
        "Eccles",
        "MediaCity Spur"
      ]
    },
    {
      "from": "Broadway",
      "to": "MediaCityUK",
      "lines": [
        "Eccles",
        "MediaCity Spur"
      ]
    },
    {
      "from": "Brooklands",
      "to": "Sale",
      "lines": [
        "Altrincham"
      ]
    },
    {
      "from": "Brooklands",
      "to": "Timperley",
      "lines": [
        "Altrincham"
      ]
    },
    {
      "from": "Burton Road",
      "to": "West Didsbury",
      "lines": [
        "East Didsbury"
      ]
    },
    {
      "from": "Burton Road",
      "to": "Withington",
      "lines": [
        "East Didsbury"
      ]
    },
    {
      "from": "Bury",
      "to": "Radcliffe",
      "lines": [
        "Bury"
      ]
    },
    {
      "from": "Cemetery Road",
      "to": "Droylsden",
      "lines": [
        "Droylsden"
      ]
    },
    {
      "from": "Cemetery Road",
      "to": "Edge Lane",
      "lines": [
        "Droylsden"
      ]
    },
    {
      "from": "Central Park",
      "to": "Monsall",
      "lines": [
        "Oldham and Rochdale"
      ]
    },
    {
      "from": "Central Park",
      "to": "Newton Heath and Moston",
      "lines": [
        "Oldham and Rochdale"
      ]
    },
    {
      "from": "Chorlton",
      "to": "Firswood",
      "lines": [
        "Chorlton"
      ]
    },
    {
      "from": "Clayton Hall",
      "to": "Edge Lane",
      "lines": [
        "Droylsden"
      ]
    },
    {
      "from": "Clayton Hall",
      "to": "Velopark",
      "lines": [
        "Droylsden"
      ]
    },
    {
      "from": "Cornbrook",
      "to": "Deansgate-Castlefield",
      "lines": [
        "Altrincham"
      ]
    },
    {
      "from": "Cornbrook",
      "to": "Pomona",
      "lines": [
        "Altrincham"
      ]
    },
    {
      "from": "Cornbrook",
      "to": "Trafford Bar",
      "lines": [
        "Eccles"
      ]
    },
    {
      "from": "Crossacres",
      "to": "Wythenshawe Town Centre",
      "lines": [
        "Manchester Airport"
      ]
    },
    {
      "from": "Dane Road",
      "to": "Sale",
      "lines": [
        "Altrincham"
      ]
    },
    {
      "from": "Dane Road",
      "to": "Stretford",
      "lines": [
        "Altrincham"
      ]
    },
    {
      "from": "Deansgate-Castlefield",
      "to": "Exchange Square",
      "lines": [
        "Second City Crossing"
      ]
    },
    {
      "from": "Deansgate-Castlefield",
      "to": "Piccadilly Gardens",
      "lines": [
        "Second City Crossing"
      ]
    },
    {
      "from": "Deansgate-Castlefield",
      "to": "St Peter's Square",
      "lines": [
        "Bury"
      ]
    },
    {
      "from": "Derker",
      "to": "Oldham Mumps",
      "lines": [
        "Oldham Town Centre",
        "Oldham and Rochdale"
      ]
    },
    {
      "from": "Derker",
      "to": "Shaw and Crompton",
      "lines": [
        "Oldham and Rochdale"
      ]
    },
    {
      "from": "Didsbury Village",
      "to": "East Didsbury",
      "lines": [
        "East Didsbury"
      ]
    },
    {
      "from": "Didsbury Village",
      "to": "West Didsbury",
      "lines": [
        "East Didsbury"
      ]
    },
    {
      "from": "Eccles",
      "to": "Ladywell",
      "lines": [
        "Eccles"
      ]
    },
    {
      "from": "Etihad Campus",
      "to": "Holt Town",
      "lines": [
        "Droylsden"
      ]
    },
    {
      "from": "Etihad Campus",
      "to": "Velopark",
      "lines": [
        "Droylsden"
      ]
    },
    {
      "from": "Exchange Quay",
      "to": "Old Trafford",
      "lines": [
        "Altrincham",
        "Chorlton"
      ]
    },
    {
      "from": "Exchange Quay",
      "to": "Pomona",
      "lines": [
        "Eccles"
      ]
    },
    {
      "from": "Exchange Quay",
      "to": "Salford Quays",
      "lines": [
        "Trafford"
      ]
    },
    {
      "from": "Exchange Quay",
      "to": "Trafford Bar",
      "lines": [
        "Altrincham",
        "Chorlton",
        "Trafford"
      ]
    },
    {
      "from": "Exchange Quay",
      "to": "Wharfside",
      "lines": [
        "Eccles"
      ]
    },
    {
      "from": "Exchange Square",
      "to": "Market Street",
      "lines": [
        "Bury"
      ]
    },
    {
      "from": "Exchange Square",
      "to": "Piccadilly Gardens",
      "lines": [
        "Second City Crossing"
      ]
    },
    {
      "from": "Exchange Square",
      "to": "Shudehill",
      "lines": [
        "Bury",
        "Piccadilly Spur",
        "Second City Crossing"
      ]
    },
    {
      "from": "Exchange Square",
      "to": "St Peter's Square",
      "lines": [
        "Piccadilly Spur",
        "Second City Crossing"
      ]
    },
    {
      "from": "Exchange Square",
      "to": "Victoria",
      "lines": [
        "Bury",
        "Piccadilly Spur"
      ]
    },
    {
      "from": "Failsworth",
      "to": "Hollinwood",
      "lines": [
        "Oldham and Rochdale"
      ]
    },
    {
      "from": "Failsworth",
      "to": "Newton Heath and Moston",
      "lines": [
        "Oldham and Rochdale"
      ]
    },
    {
      "from": "Firswood",
      "to": "Old Trafford",
      "lines": [
        "Chorlton"
      ]
    },
    {
      "from": "Freehold",
      "to": "South Chadderton",
      "lines": [
        "Oldham and Rochdale"
      ]
    },
    {
      "from": "Freehold",
      "to": "Westwood",
      "lines": [
        "Oldham and Rochdale"
      ]
    },
    {
      "from": "Harbour City",
      "to": "Imperial War Museum",
      "lines": [
        "Eccles"
      ]
    },
    {
      "from": "Harbour City",
      "to": "Langworthy",
      "lines": [
        "MediaCity Spur"
      ]
    },
    {
      "from": "Harbour City",
      "to": "MediaCityUK",
      "lines": [
        "MediaCity Spur"
      ]
    },
    {
      "from": "Harbour City",
      "to": "Wharfside",
      "lines": [
        "Trafford"
      ]
    },
    {
      "from": "Heaton Park",
      "to": "Prestwich",
      "lines": [
        "Bury"
      ]
    },
    {
      "from": "Hollinwood",
      "to": "South Chadderton",
      "lines": [
        "Oldham and Rochdale"
      ]
    },
    {
      "from": "Holt Town",
      "to": "New Islington",
      "lines": [
        "Droylsden"
      ]
    },
    {
      "from": "Imperial War Museum",
      "to": "Langworthy",
      "lines": [
        "Eccles"
      ]
    },
    {
      "from": "Imperial War Museum",
      "to": "MediaCityUK",
      "lines": [
        "Eccles",
        "MediaCity Spur",
        "Trafford"
      ]
    },
    {
      "from": "Kingsway Business Park",
      "to": "Milnrow",
      "lines": [
        "Oldham and Rochdale"
      ]
    },
    {
      "from": "Kingsway Business Park",
      "to": "Newbold",
      "lines": [
        "Oldham and Rochdale"
      ]
    },
    {
      "from": "Ladywell",
      "to": "Weaste",
      "lines": [
        "Eccles"
      ]
    },
    {
      "from": "Langworthy",
      "to": "Weaste",
      "lines": [
        "Eccles"
      ]
    },
    {
      "from": "Manchester Airport",
      "to": "Shadowmoss",
      "lines": [
        "Manchester Airport"
      ]
    },
    {
      "from": "Market Street",
      "to": "Piccadilly Gardens",
      "lines": [
        "Bury",
        "Piccadilly Spur",
        "Second City Crossing"
      ]
    },
    {
      "from": "Market Street",
      "to": "Shudehill",
      "lines": [
        "Bury",
        "Piccadilly Spur",
        "Second City Crossing"
      ]
    },
    {
      "from": "Market Street",
      "to": "Victoria",
      "lines": [
        "Bury",
        "Piccadilly Spur",
        "Second City Crossing"
      ]
    },
    {
      "from": "Martinscroft",
      "to": "Roundthorn",
      "lines": [
        "Manchester Airport"
      ]
    },
    {
      "from": "MediaCityUK",
      "to": "Village",
      "lines": [
        "Trafford"
      ]
    },
    {
      "from": "Milnrow",
      "to": "Newhey",
      "lines": [
        "Oldham and Rochdale"
      ]
    },
    {
      "from": "Monsall",
      "to": "Queens Road",
      "lines": [
        "Oldham and Rochdale"
      ]
    },
    {
      "from": "Moor Road",
      "to": "Wythenshawe Park",
      "lines": [
        "Manchester Airport"
      ]
    },
    {
      "from": "Navigation Road",
      "to": "Timperley",
      "lines": [
        "Altrincham"
      ]
    },
    {
      "from": "New Islington",
      "to": "Piccadilly",
      "lines": [
        "Droylsden"
      ]
    },
    {
      "from": "Newbold",
      "to": "Rochdale Railway Station",
      "lines": [
        "Oldham and Rochdale"
      ]
    },
    {
      "from": "Newhey",
      "to": "Shaw and Crompton",
      "lines": [
        "Oldham and Rochdale"
      ]
    },
    {
      "from": "Northern Moor",
      "to": "Sale Water Park",
      "lines": [
        "Manchester Airport"
      ]
    },
    {
      "from": "Northern Moor",
      "to": "Wythenshawe Park",
      "lines": [
        "Manchester Airport"
      ]
    },
    {
      "from": "Old Trafford",
      "to": "Stretford",
      "lines": [
        "Altrincham"
      ]
    },
    {
      "from": "Oldham Central",
      "to": "Oldham King Street",
      "lines": [
        "Oldham Town Centre"
      ]
    },
    {
      "from": "Oldham Central",
      "to": "Oldham Mumps",
      "lines": [
        "Oldham Town Centre"
      ]
    },
    {
      "from": "Oldham King Street",
      "to": "Westwood",
      "lines": [
        "Oldham Town Centre"
      ]
    },
    {
      "from": "Parkway",
      "to": "Village",
      "lines": [
        "Trafford"
      ]
    },
    {
      "from": "Peel Hall",
      "to": "Robinswood Road",
      "lines": [
        "Manchester Airport"
      ]
    },
    {
      "from": "Peel Hall",
      "to": "Shadowmoss",
      "lines": [
        "Manchester Airport"
      ]
    },
    {
      "from": "Piccadilly",
      "to": "Piccadilly Gardens",
      "lines": [
        "Droylsden",
        "Piccadilly Spur"
      ]
    },
    {
      "from": "Piccadilly Gardens",
      "to": "St Peter's Square",
      "lines": [
        "Bury",
        "Piccadilly Spur",
        "Second City Crossing"
      ]
    },
    {
      "from": "Piccadilly Gardens",
      "to": "Victoria",
      "lines": [
        "Piccadilly Spur"
      ]
    },
    {
      "from": "Pomona",
      "to": "Trafford Bar",
      "lines": [
        "Altrincham",
        "Chorlton",
        "Eccles",
        "Trafford"
      ]
    },
    {
      "from": "Queens Road",
      "to": "Shudehill",
      "lines": [
        "Bury"
      ]
    },
    {
      "from": "Radcliffe",
      "to": "Whitefield",
      "lines": [
        "Bury"
      ]
    },
    {
      "from": "Robinswood Road",
      "to": "Wythenshawe Town Centre",
      "lines": [
        "Manchester Airport"
      ]
    },
    {
      "from": "Rochdale Railway Station",
      "to": "Rochdale Town Centre",
      "lines": [
        "Oldham and Rochdale",
        "Rochdale Town Centre"
      ]
    },
    {
      "from": "Salford Quays",
      "to": "Wharfside",
      "lines": [
        "Eccles",
        "Trafford"
      ]
    },
    {
      "from": "Shudehill",
      "to": "Victoria",
      "lines": [
        "Piccadilly Spur",
        "Second City Crossing"
      ]
    },
    {
      "from": "St Peter's Square",
      "to": "Victoria",
      "lines": [
        "Piccadilly Spur"
      ]
    }
  ]
}